,City,Cloudiness,Country,Date,Humidity,Latitude,Longitude,Max Temp (C),Wind Speed
0,Torbay,90,CA,1612258469,86,47.6666,-52.7314,-2.78,3.6
1,Alta Floresta,42,BR,1612258470,97,-9.8756,-56.0861,21.23,0.92
2,Katsuura,40,JP,1612258423,43,35.1333,140.3,11.0,8.75
3,Vao,100,NC,1612258473,85,-22.6667,167.4833,24.25,13.65
4,Comodoro Rivadavia,0,AR,1612258474,48,-45.8667,-67.5,19.0,2.06
5,Salalah,0,OM,1612258475,14,17.0151,54.0924,29.0,6.17
6,Kondinskoye,40,RU,1612258476,96,59.6481,67.41,-8.31,4.3
7,Bluff,100,NZ,1612258477,80,-46.6,168.3333,16.54,3.03
8,Hobart,75,AU,1612258219,59,-42.8794,147.3294,16.67,6.69
9,Kaitangata,77,NZ,1612258480,91,-46.2817,169.8464,14.19,0.44
10,Atbasar,100,KZ,1612258481,97,51.8,68.3333,-6.25,3.59
11,Tura,23,IN,1612258482,38,25.5198,90.2201,22.27,2.39
12,Akdepe,0,TM,1612258484,37,42.0551,59.3788,11.0,4.12
13,Cabo San Lucas,35,MX,1612258485,59,22.8909,-109.9124,16.11,0.89
14,Mahébourg,40,MU,1612258486,62,-20.4081,57.7,31.0,8.23
15,Albany,100,US,1612258443,86,42.6001,-73.9662,-3.89,0.45
16,Rikitea,98,PF,1612258488,75,-23.1203,-134.9692,25.65,5.77
17,Formosa,75,AR,1612258489,100,-26.1775,-58.1781,23.0,1.03
18,New Norfolk,91,AU,1612258490,55,-42.7826,147.0587,16.11,0.45
19,Przasnysz,75,PL,1612258494,86,53.0191,20.8803,0.0,4.12
20,Busselton,0,AU,1612258219,36,-33.65,115.3333,32.22,1.34
21,Emirdağ,0,TR,1612258496,62,39.0197,31.15,12.0,7.72
22,Lebu,4,CL,1612258497,91,-37.6167,-73.65,12.77,5.35
23,Hong Kong,1,HK,1612258476,72,22.2855,114.1577,22.22,1.34
24,Tuatapere,97,NZ,1612258499,86,-46.1333,167.6833,15.85,0.45
25,Punta Arenas,75,CL,1612258501,76,-53.15,-70.9167,11.0,9.26
26,Ruwi,0,OM,1612258502,61,23.5996,58.5507,25.0,5.14
27,Cape Town,0,ZA,1612258363,34,-33.9258,18.4232,28.0,1.54
28,Qaanaaq,100,GL,1612258504,79,77.484,-69.3632,-20.12,3.17
29,Kanniyākumāri,44,IN,1612258505,65,8.0833,77.5667,28.95,8.88
30,Puerto Ayora,49,EC,1612258439,85,-0.7393,-90.3518,24.9,3.06
31,Río Bueno,51,CL,1612258508,97,-40.3167,-72.9667,8.73,1.27
32,Chui,0,UY,1612258509,93,-33.6971,-53.4616,20.55,2.28
33,San Quintín,100,MX,1612258510,72,30.4833,-115.95,16.02,6.34
34,Vila Franca do Campo,40,PT,1612258511,63,37.7167,-25.4333,15.0,11.83
35,Barrow,1,US,1612258513,68,71.2906,-156.7887,-32.0,5.66
36,Jamestown,75,US,1612258514,86,42.097,-79.2353,-6.67,5.14
37,Longyearbyen,75,SJ,1612258515,79,78.2186,15.6401,-8.0,4.12
38,Hermanus,0,ZA,1612258516,35,-34.4187,19.2345,31.11,1.34
39,Port Elizabeth,0,ZA,1612258517,57,-33.918,25.5701,24.0,8.75
40,Dalby,25,AU,1612258518,52,-27.1833,151.2667,25.56,0.89
41,Sedkyrkeshch,75,RU,1612258520,80,61.75,50.9167,-5.0,3.0
42,Mataura,82,NZ,1612258442,75,-46.1927,168.8643,15.44,0.74
43,Sarangani,51,PH,1612258522,74,5.4033,125.4636,28.08,4.9
44,Khatanga,0,RU,1612258523,83,71.9667,102.5,-35.85,4.52
45,Port Alfred,32,ZA,1612258524,68,-33.5906,26.891,23.89,4.92
46,Vaini,75,TO,1612258526,89,-21.2,-175.2,27.0,9.77
47,Ponta do Sol,18,PT,1612258527,71,32.6667,-17.1,14.44,0.89
48,Tuktoyaktuk,100,CA,1612258528,86,69.4541,-133.0374,-32.53,3.6
49,Yellowknife,90,CA,1612258440,70,62.456,-114.3525,-22.78,7.2
50,Rio Brilhante,74,BR,1612258531,94,-21.8019,-54.5464,21.93,1.5
51,Ushuaia,40,AR,1612258383,87,-54.8,-68.3,9.0,10.8
52,Shubarkuduk,100,KZ,1612258533,98,49.1447,56.4872,-0.05,5.37
53,Thompson,90,CA,1612258534,92,55.7435,-97.8558,-11.0,2.06
54,Constitución,30,CL,1612258535,86,-35.3333,-72.4167,14.04,0.72
55,Pampas,98,PE,1612258537,80,-12.4,-74.9,9.17,1.02
56,Tessalit,2,ML,1612258538,19,20.1986,1.0114,24.34,7.52
57,Avarua,40,CK,1612258539,78,-21.2078,-159.775,27.0,3.6
58,Santa Fe,9,AR,1612258540,87,-31.6333,-60.7,20.56,1.34
59,Jatai,100,BR,1612258541,87,-17.8814,-51.7144,20.85,1.21
60,Saldanha,0,ZA,1612258542,28,-33.0117,17.9442,30.0,2.06
61,Xining,56,CN,1612258388,55,36.6167,101.7667,-0.85,1.11
62,Ocampo,88,MX,1612258545,68,21.65,-101.5,5.14,1.82
63,Upernavik,100,GL,1612258546,89,72.7868,-56.1549,-21.82,4.52
64,Omsukchan,100,RU,1612258548,81,62.5333,155.8,-34.55,1.77
65,Mandalī,0,IQ,1612258549,29,33.7499,45.5541,19.95,5.58
66,Barsovo,75,RU,1612258550,93,61.1667,73.1667,-8.0,6.0
67,Yatou,0,CN,1612258551,80,37.15,122.3833,-2.83,4.7
68,Butaritari,11,KI,1612258552,83,3.0707,172.7902,27.52,7.78
69,Tumut,1,AU,1612258554,38,-35.3,148.2167,23.0,3.6
70,Meulaboh,98,ID,1612258555,70,4.1363,96.1285,28.89,3.26
71,Saint George,90,US,1612258556,46,37.1041,-113.5841,11.0,1.54
72,Bandarbeyla,77,SO,1612258557,55,9.4942,50.8122,25.38,8.83
73,Shikarpur,0,PK,1612258558,38,27.9571,68.6379,24.0,1.03
74,Sioux Lookout,90,CA,1612258559,93,50.1001,-91.917,-8.0,0.78
75,Nouadhibou,0,MR,1612258561,82,20.931,-17.0347,17.0,5.14
76,Faya,0,SA,1612258562,20,18.3851,42.4509,23.0,4.12
77,Pacific Grove,1,US,1612258563,87,36.6177,-121.9166,12.78,3.68
78,Ilulissat,75,GL,1612258564,85,69.2167,-51.1,-17.0,6.69
79,Atuona,32,PF,1612258565,80,-9.8,-139.0333,25.6,6.93
80,Bambous Virieux,40,MU,1612258566,62,-20.3428,57.7575,31.0,8.23
81,Mar del Plata,75,AR,1612258568,82,-38.0023,-57.5575,19.0,4.12
82,Hithadhoo,73,MV,1612258569,67,-0.6,73.0833,28.36,2.02
83,Tigzirt,21,DZ,1612258570,74,36.8886,4.1198,15.93,5.11
84,Benguela,7,AO,1612258571,57,-12.5763,13.4055,27.99,3.6
85,Nome,75,US,1612258572,56,64.5011,-165.4064,-13.89,7.72
86,Lüderitz,0,NA,1612258573,55,-26.6481,15.1594,22.74,6.64
87,Neuquén,0,AR,1612258575,82,-38.9516,-68.0591,12.0,1.54
88,Maków Mazowiecki,100,PL,1612258576,64,52.8649,21.1005,0.56,3.13
89,Saint-Philippe,90,RE,1612258577,62,-21.3585,55.7679,31.0,3.6
90,Norsup,100,VU,1612258578,78,-16.0667,167.3833,28.03,10.67
91,Grindavik,75,IS,1612258579,69,63.8424,-22.4338,-1.0,6.17
92,Bethel,100,US,1612258580,96,41.3712,-73.414,0.0,2.24
93,Geraldton,75,AU,1612258521,51,-28.7667,114.6,30.0,9.26
94,Atar,0,MR,1612258583,14,20.5169,-13.0499,27.3,5.73
95,Talnakh,100,RU,1612258584,85,69.4865,88.3972,-25.79,3.4
96,Coos Bay,90,US,1612258585,100,43.3665,-124.2179,8.0,3.09
97,Grand Gaube,8,MU,1612258586,69,-20.0064,57.6608,29.44,5.36
98,Samarai,77,PG,1612258587,76,-10.6167,150.6667,28.33,7.32
99,Waipawa,99,NZ,1612258588,82,-41.4122,175.5153,17.0,1.54
100,Port Hardy,75,CA,1612258590,93,50.6996,-127.4199,6.0,1.03
101,Port Hedland,90,AU,1612258591,79,-20.3167,118.5667,30.0,7.72
102,Carnarvon,90,AU,1612258592,58,-24.8667,113.6333,31.0,7.72
103,Airai,92,TL,1612258593,100,-8.9266,125.4092,17.33,1.22
104,Bengkulu,95,ID,1612258594,81,-3.8004,102.2655,28.11,3.52
105,Cadillac,90,US,1612258596,86,44.2519,-85.4012,-7.0,3.84
106,Hualmay,99,PE,1612258597,83,-11.0964,-77.6139,20.26,2.03
107,Cooma,75,AU,1612258598,71,-36.2333,149.1333,13.0,4.63
108,Saint Anthony,90,US,1612258599,79,45.0205,-93.218,-6.0,1.21
109,Cap Malheureux,6,MU,1612258600,69,-19.9842,57.6142,29.44,5.36
110,Nikolskoye,75,RU,1612258601,93,59.7035,30.7861,-3.0,5.0
111,Port-Cartier,16,CA,1612258603,67,50.0334,-66.8654,-9.0,1.54
112,Cherskiy,74,RU,1612258604,88,68.75,161.3,-15.97,3.4
113,Beaupré,100,CA,1612258605,74,47.0443,-70.8953,-4.0,5.14
114,Bousso,0,TD,1612258606,10,10.4795,16.7117,34.67,4.03
115,Bathsheba,40,BB,1612258607,61,13.2167,-59.5167,26.0,9.77
116,Clyde River,1,CA,1612258608,75,70.4692,-68.5914,-33.0,1.54
117,Lysyanka,97,UA,1612258610,97,49.2523,30.8295,-2.85,0.55
118,Fortuna,75,US,1612258611,87,40.5982,-124.1573,10.0,2.06
119,Kapaa,40,US,1612258612,94,22.0752,-159.319,22.0,6.17
120,Vardø,40,NO,1612258613,68,70.3705,31.1107,-3.0,8.23
121,Arraial do Cabo,75,BR,1612258614,83,-22.9661,-42.0278,25.0,6.69
122,Christchurch,1,NZ,1612258613,88,-43.5333,172.6333,16.11,7.72
123,Northam,50,GB,1612258617,94,51.0333,-4.2167,11.67,2.24
124,Sovetsk,100,RU,1612258618,97,55.0839,21.8785,-3.43,5.88
125,Wawa,0,NG,1612258619,13,9.9022,4.4192,31.12,2.07
126,Yar-Sale,98,RU,1612258620,96,66.8333,70.8333,-11.52,4.0
127,Pisco,0,PE,1612258622,83,-13.7,-76.2167,21.0,2.57
128,Kodino,88,RU,1612258623,96,63.7198,39.6447,-10.33,2.11
129,Rawson,99,AR,1612258624,36,-43.3002,-65.1023,21.38,1.44
130,Rome,90,US,1612258625,86,43.2128,-75.4557,-5.0,5.14
131,Codrington,97,AU,1612258626,70,-38.2667,141.9667,14.97,4.92
132,San Patricio,1,US,1612258627,75,28.017,-97.5169,7.0,3.09
133,Hilo,90,US,1612258338,78,19.7297,-155.09,21.0,2.76
134,East London,40,ZA,1612258630,56,-33.0153,27.9116,23.0,7.2
135,Bredasdorp,0,ZA,1612258631,36,-34.5322,20.0403,26.0,7.72
136,Saint-Paul,75,RE,1612258632,70,-21.0096,55.2707,30.0,8.75
137,Normandin,95,CA,1612258633,84,48.8333,-72.5321,-16.0,1.54
138,Sigli,97,ID,1612258634,76,5.3848,95.9609,27.48,3.33
139,Den Helder,75,NL,1612258636,93,52.9599,4.7593,1.67,5.66
140,Coquimbo,90,CL,1612258637,94,-29.9533,-71.3436,14.0,1.54
141,Tungor,100,RU,1612258638,83,53.3808,142.9564,-32.03,6.38
142,Wanaka,17,NZ,1612258639,61,-44.7,169.15,15.58,1.25
143,George Town,20,MY,1612258640,66,5.4112,100.3354,31.0,3.6
144,Saskylakh,99,RU,1612258642,85,71.9167,114.0833,-33.16,5.87
145,Ozinki,100,RU,1612258643,99,51.1786,49.6769,1.61,7.74
146,Hofn,100,IS,1612258644,92,64.2539,-15.2082,0.04,6.08
147,Cayenne,90,GF,1612258645,100,4.9333,-52.3333,23.0,4.91
148,Marawi,100,PH,1612258646,88,7.9986,124.2928,25.56,1.77
149,Nanortalik,0,GL,1612258647,92,60.1432,-45.2371,-7.0,4.7
150,Kununurra,94,AU,1612258519,74,-15.7667,128.7333,32.0,2.57
151,Bellavista,81,PE,1612258650,94,-7.0561,-76.5911,20.43,0.35
152,Coyhaique,0,CL,1612258652,87,-45.5752,-72.0662,9.0,2.06
153,Keti Bandar,0,PK,1612258653,47,24.1447,67.4497,25.96,5.73
154,Morón,90,AR,1612258654,97,-34.6534,-58.6198,19.44,1.34
155,Finnsnes,0,NO,1612258655,85,69.2296,17.9811,-17.0,2.04
156,Rognan,73,NO,1612258657,68,67.0953,15.3878,-5.56,3.64
157,Yangjiang,7,CN,1612258447,66,21.85,111.9667,21.27,3.18
158,Chokurdakh,100,RU,1612258659,94,70.6333,147.9167,-15.35,7.67
159,Laas,0,IT,1612258440,93,46.6166,10.7002,5.0,2.06
160,Severo-Kuril'sk,100,RU,1612258661,91,50.6789,156.125,1.09,8.33
161,Apatzingán,0,MX,1612258662,66,19.0833,-102.35,21.4,0.42
162,Kahului,20,US,1612258664,78,20.8947,-156.47,21.0,2.57
163,Kingseat,75,GB,1612258665,93,56.0974,-3.4084,3.89,6.69
164,Leningradskiy,100,RU,1612258667,87,69.3833,178.4167,-16.64,14.09
165,Camacha,75,PT,1612258668,77,33.0833,-16.3333,16.0,2.57
166,Moroto,97,UG,1612258669,19,2.5345,34.6666,30.77,8.58
167,Bonthe,49,SL,1612258670,64,7.5264,-12.505,28.88,2.9
168,Klaksvík,20,FO,1612258671,69,62.2266,-6.589,-2.0,3.09
169,Springbok,0,ZA,1612258672,16,-29.6643,17.8865,31.27,2.61
170,Troy,90,US,1612258674,74,42.6056,-83.1499,-3.33,2.57
171,Hamilton,90,US,1612258398,68,39.1834,-84.5333,-2.78,6.17
172,Sompeta,0,IN,1612258676,48,18.9333,84.6,25.14,4.82
173,Roald,20,NO,1612258677,86,62.5833,6.1333,-4.0,3.6
174,Sampit,88,ID,1612258678,80,-2.5333,112.95,28.23,1.78
175,Jardim,20,BR,1612258679,92,-21.4803,-56.1381,22.55,1.69
176,Puerto Rondón,100,CO,1612258681,61,6.2805,-71.1,23.52,2.87
177,Orocué,100,CO,1612258682,58,4.7912,-71.3354,24.78,2.73
178,Paramonga,100,PE,1612258683,84,-10.6667,-77.8333,20.15,1.67
179,Broome,90,US,1612258684,93,42.2506,-75.833,-3.89,9.26
180,Novy Urengoy,100,RU,1612258685,93,66.0833,76.6333,-16.3,5.99
181,Havøysund,40,NO,1612258686,80,70.9963,24.6622,-2.0,4.63
182,Livingston,75,GB,1612258688,93,55.9029,-3.5226,2.78,6.69
183,Touros,40,BR,1612258689,88,-5.1989,-35.4608,24.0,2.06
184,Santiago del Estero,96,AR,1612258690,83,-27.7951,-64.2615,19.9,2.68
185,Parrsboro,100,CA,1612258691,100,45.4001,-64.332,-1.67,3.09
186,Rabo de Peixe,40,PT,1612258692,63,37.8,-25.5833,15.0,11.83
187,Castro,17,BR,1612258693,93,-24.7911,-50.0119,18.44,0.97
188,Ataco,86,CO,1612258702,74,3.5915,-75.3818,21.94,1.06
189,Lumut,20,MY,1612258703,70,4.2323,100.6298,32.0,3.09
190,Saint Paul Harbor,90,US,1612258704,46,57.79,-152.4072,-2.0,5.14
191,Ribeira Grande,20,PT,1612258705,62,38.5167,-28.7,14.0,15.43
192,Te Anau,58,NZ,1612258706,90,-45.4167,167.7167,13.35,1.27
193,Kembaran,75,ID,1612258707,74,-7.3834,110.0017,29.0,6.17
194,Kavieng,100,PG,1612258709,80,-2.5744,150.7967,27.91,7.58
195,Itaituba,76,BR,1612258710,97,-4.2761,-55.9836,21.86,0.98
196,Sungai Penuh,100,ID,1612258711,93,-2.0833,101.3833,21.49,0.4
197,Itoman,40,JP,1612258695,68,26.1247,127.6694,19.0,10.8
198,Myrtle Beach,90,US,1612258713,75,33.6891,-78.8867,3.33,5.66
199,Terney,5,RU,1612258715,81,45.0503,136.6092,-22.63,4.78
200,Suclayin,72,PH,1612258716,86,15.7568,121.5503,23.39,4.25
201,Imbituba,40,BR,1612258717,94,-28.24,-48.6703,23.0,1.54
202,Petropavlovsk-Kamchatskiy,90,RU,1612258693,52,53.0452,158.6483,-12.0,4.0
203,Burnie,0,AU,1612258719,61,-41.0667,145.9167,15.0,6.71
204,Ode,29,NG,1612258721,35,7.7899,5.7117,31.85,1.52
205,Kedgwick,100,CA,1612258722,97,47.6446,-67.3434,-9.14,4.16
206,Tocache,99,PE,1612258723,88,-8.1842,-76.5125,20.04,0.22
207,Marsá Maţrūḩ,0,EG,1612258724,32,31.3525,27.2453,19.0,1.54
208,Lata,96,PT,1612258725,95,40.1629,-8.3327,13.89,1.34
209,Sur,0,OM,1612258727,56,22.5667,59.5289,24.04,4.47
210,Rubtsovsk,97,RU,1612258728,98,51.5,81.25,-2.92,3.1
211,Ostrovnoy,100,RU,1612258729,95,68.0531,39.5131,-5.77,5.22
212,Sitka,90,US,1612258730,69,57.0531,-135.33,2.0,4.85
213,Portland,75,US,1612258731,76,45.5234,-122.6762,9.0,4.12
214,Shakawe,100,BW,1612258733,67,-18.3667,21.85,26.18,3.98
215,Aswān,0,EG,1612258734,16,24.0934,32.907,27.02,2.17
216,Provideniya,100,RU,1612258735,91,64.3833,-173.3,-15.84,9.13
217,Fort Nelson,90,CA,1612258736,77,58.8053,-122.7002,-22.0,2.57
218,Fairbanks,1,US,1612258737,69,64.8378,-147.7164,-28.0,2.06
219,Pevek,100,RU,1612258738,92,69.7008,170.3133,-14.36,3.66
220,Amahai,98,ID,1612258740,76,-3.3333,128.9167,27.79,0.96
221,Lavaca,1,US,1612258741,61,28.615,-96.6261,7.0,2.06
222,Houndé,0,BF,1612258742,11,11.5,-3.5167,29.43,4.76
223,Karla,90,EE,1612258743,93,59.3723,24.9275,-1.11,5.14
224,Alice Town,2,BS,1612258744,72,25.7167,-79.3,14.15,12.46
225,Dunedin,60,NZ,1612258745,90,-45.8742,170.5036,15.56,4.47
226,Muros,100,ES,1612258746,93,42.7762,-9.0603,14.44,2.24
227,Piaçabuçu,100,BR,1612258748,76,-10.4056,-36.4344,26.58,4.85
228,Praia,20,CV,1612258749,73,14.9215,-23.5087,21.0,8.75
229,Lagoa,40,PT,1612258750,66,39.05,-27.9833,13.39,16.18
230,Newport,55,GB,1612258751,96,51.5877,-2.9984,11.11,1.34
231,Taksimo,83,RU,1612258753,76,56.3444,114.8794,-29.14,1.58
232,Hasaki,75,JP,1612258648,57,35.7333,140.8333,9.0,7.2
233,Iqaluit,20,CA,1612258755,69,63.7506,-68.5145,-30.0,2.57
234,Kysyl-Syr,100,RU,1612258756,78,63.8986,122.7617,-41.61,3.88
235,Port-Gentil,75,GA,1612258757,74,-0.7193,8.7815,30.0,2.06
236,Cabedelo,20,BR,1612258758,83,-6.9811,-34.8339,25.0,2.06
237,Faanui,1,PF,1612258763,78,-16.4833,-151.75,27.0,6.42
238,Turinsk,100,RU,1612258764,97,58.0458,63.696,-5.71,3.7
239,Andenes,20,NO,1612258765,69,69.3143,16.1194,-2.0,6.17
240,Dikson,100,RU,1612258766,81,73.5069,80.5464,-26.75,7.56
241,Muisne,98,EC,1612258767,92,0.6,-80.0333,23.78,1.15
242,Aklavik,89,CA,1612258768,76,68.2191,-135.0107,-26.0,3.09
243,Ancud,0,CL,1612258770,76,-41.8697,-73.8203,9.44,1.54
244,Irpa Irpa,75,BO,1612258771,67,-17.7167,-66.2667,16.0,1.54
245,Lima,0,PE,1612258743,83,-12.0432,-77.0282,20.0,2.06
246,Anadyr,90,RU,1612258773,92,64.75,177.4833,-10.0,18.0
247,Lompoc,1,US,1612258774,93,34.6391,-120.4579,8.89,0.95
248,Quelimane,40,MZ,1612258775,74,-17.8786,36.8883,31.0,1.2
249,São José da Coroa Grande,100,BR,1612258776,75,-8.8978,-35.1478,26.31,5.0
250,Dawlatabad,23,AF,1612258778,44,36.4141,64.9053,13.63,6.26
251,San Jose,75,US,1612258776,62,37.3394,-121.895,13.89,3.6
252,Esperance,100,AU,1612258780,29,-33.8667,121.9,27.0,6.17
253,Buala,100,SB,1612258781,86,-8.145,159.5921,25.44,4.09
254,Viedma,0,AR,1612258783,76,-40.8135,-62.9967,14.1,3.55
255,Mareeba,40,AU,1612258784,74,-17.0,145.4333,28.0,2.06
256,Oktyabr'skiy,100,RU,1612258785,97,54.4815,53.471,2.14,7.3
257,Arona,20,ES,1612258786,82,28.0996,-16.681,20.56,4.12
258,Kailua,75,US,1612258787,73,21.4022,-157.7394,23.0,3.6
259,Ariquemes,100,BR,1612258788,97,-9.9133,-63.0408,22.4,0.55
260,Abhā,0,SA,1612258726,20,18.2164,42.5053,23.0,4.12
261,Shellbrook,90,CA,1612258791,85,53.2168,-106.4011,-11.0,1.54
262,Norman Wells,90,CA,1612258795,76,65.282,-126.8329,-28.0,6.69
263,Bambari,0,CF,1612258797,18,5.768,20.6757,43.41,0.39
264,Quesnel,90,CA,1612258798,100,52.9999,-122.5029,-2.0,1.54
265,Cairns,40,AU,1612258701,74,-16.9167,145.7667,28.0,2.06
266,Balkhash,0,KZ,1612258800,73,46.844,74.9804,-6.0,7.0
267,Itarema,95,BR,1612258801,74,-2.9248,-39.9167,26.74,6.2
268,Mayskiy,0,RU,1612258803,71,47.6931,40.1025,8.0,3.0
269,Billings Metropolitan Area,20,US,1612258595,26,45.7833,-108.5007,7.0,9.26
270,Stuttgart,75,DE,1612258805,93,48.7823,9.177,7.22,1.54
271,Sabalgarh,0,IN,1612258807,14,26.25,77.4,29.62,2.99
272,Southampton,79,GB,1612258808,94,50.904,-1.4043,10.56,2.24
273,Kloulklubed,90,PW,1612258809,78,7.0419,134.2556,28.0,2.06
274,Stadtlohn,100,DE,1612258810,91,51.9833,6.9333,3.33,1.79
275,Puerto Maldonado,97,PE,1612258811,97,-12.6,-69.1833,22.63,0.73
276,Dom Pedrito,28,BR,1612258812,86,-30.9828,-54.6731,21.59,0.36
277,Ōtake,20,JP,1612258814,36,34.2,132.2167,7.0,4.63
278,Karoi,100,ZW,1612258815,83,-16.8099,29.6925,23.58,2.14
279,Salinópolis,46,BR,1612258816,87,-0.6136,-47.3561,25.78,4.41
280,Novoagansk,99,RU,1612258817,95,61.9449,76.6625,-11.29,4.76
281,Port Lincoln,0,AU,1612258818,71,-34.7333,135.8667,17.13,6.02
282,Poninka,66,UA,1612258819,97,50.1849,27.5363,-4.21,2.58
283,Kavaratti,0,IN,1612258821,65,10.5669,72.642,28.13,1.93
284,Askarovo,90,RU,1612258822,100,53.3372,58.5089,-2.0,9.0
285,Cidreira,94,BR,1612258823,86,-30.1811,-50.2056,23.75,2.03
286,Hailar,0,CN,1612258824,84,49.2,119.7,-29.29,4.3
287,Villarrubia de los Ojos,75,ES,1612258826,87,39.2209,-3.608,11.11,2.57
288,Lavrentiya,100,RU,1612258827,87,65.5833,-171.0,-15.09,9.77
289,Boguchany,100,RU,1612258828,85,58.3814,97.4531,-25.59,0.52
290,Chumikan,66,RU,1612258829,78,54.7183,135.315,-31.4,7.73
291,Nueva Concepción,0,GT,1612258831,58,14.2,-91.3,22.36,1.89
292,Half Moon Bay,90,US,1612258832,94,37.4636,-122.4286,13.0,6.69
293,Dingle,100,PH,1612258833,88,10.9995,122.6711,24.9,4.1
294,Marquette,65,US,1612258834,77,46.5333,-87.6335,-1.67,2.68
295,Acaraú,94,BR,1612258835,76,-2.8856,-40.12,26.57,6.44
296,Husavik,0,IS,1612258837,78,66.0449,-17.3389,-15.0,4.63
297,Batemans Bay,71,AU,1612258657,70,-35.7167,150.1833,19.44,3.13
298,Mvuma,100,ZW,1612258839,74,-19.2792,30.5283,22.89,4.75
299,Seymchan,100,RU,1612258840,84,62.8833,152.4333,-32.48,0.85
300,Koslan,100,RU,1612258844,96,63.4564,48.8989,-8.6,3.59
301,Mount Gambier,90,AU,1612258845,67,-37.8333,140.7667,15.0,7.2
302,Kidal,14,ML,1612258847,15,18.4411,1.4078,26.9,5.96
303,Şuraabad,75,AZ,1612258848,87,40.8192,49.4687,10.0,10.29
304,Kalmunai,26,LK,1612258850,78,7.4167,81.8167,27.56,7.44
305,Kushima,20,JP,1612258629,29,31.4583,131.2333,10.0,10.29
306,Alice Springs,40,AU,1612258806,20,-23.7,133.8833,34.0,5.66
307,Guerrero Negro,100,MX,1612258853,68,27.9769,-114.0611,15.68,1.87
308,Tasiilaq,90,GL,1612258854,86,65.6145,-37.6368,-8.0,3.09
309,Sarnia,90,CA,1612258855,69,42.9787,-82.4041,-1.0,8.23
310,Sisimiut,89,GL,1612258857,88,66.9395,-53.6735,-20.0,4.04
311,Bull Savanna,0,JM,1612258858,84,17.8868,-77.5902,21.52,2.82
312,Funadhoo,1,MV,1612258859,78,6.15,73.2667,27.54,6.76
313,Gornyatskiy,100,RU,1612258860,71,48.2915,40.9575,8.56,5.8
314,Takelsa,20,TN,1612258861,67,36.7833,10.6333,17.0,4.12
315,Verkhoyansk,100,RU,1612258862,81,67.5447,133.385,-37.0,1.49
316,Bako,86,ET,1612258864,21,5.7833,36.5667,30.73,1.49
317,Karratha,100,AU,1612258864,82,-20.7377,116.8463,27.95,8.28
318,Mendoza,75,AR,1612258866,67,-32.8908,-68.8272,16.0,3.09
319,Harper,43,LR,1612258867,82,4.375,-7.7169,27.52,2.79
320,Barcelos,90,PT,1612258868,94,41.5388,-8.6151,13.0,9.26
321,Mossamedes,0,AO,1612258870,69,-15.1961,12.1522,24.0,6.17
322,Ţahţā,0,EG,1612258874,32,26.7693,31.5021,21.0,2.06
323,Rio Grande,0,BR,1612258875,99,-32.035,-52.0986,22.22,2.71
324,Kumul,53,CN,1612258879,67,42.8,93.45,1.59,2.32
325,İskilip,0,TR,1612258880,49,40.7353,34.4739,10.11,2.18
326,Jalu,44,LY,1612258883,35,29.0331,21.5482,19.54,3.36
327,Kieta,100,PG,1612258884,79,-6.2167,155.6333,27.54,5.23
328,Kantang,20,TH,1612258624,51,7.4054,99.5156,33.33,3.6
329,Loknya,99,RU,1612258886,95,56.83,30.1467,-4.87,3.1
330,Srīvardhan,0,IN,1612258887,36,18.0333,73.0167,30.44,5.49
331,Prince Rupert,90,CA,1612258888,93,54.3161,-130.3201,4.0,1.54
332,Vila Velha,20,BR,1612258889,94,-20.3297,-40.2925,23.33,1.03
333,Linkou,100,CN,1612258891,83,45.3,130.2833,-24.34,4.42
334,Vestmannaeyjar,75,IS,1612258892,93,63.4427,-20.2734,1.0,14.4
335,Newcastle,75,AU,1612258707,68,-32.9272,151.7765,21.67,4.63
336,Ca Mau,62,VN,1612258617,61,9.1769,105.15,27.8,4.0
337,Ghanzi,92,BW,1612258895,68,-21.5667,21.7833,25.59,2.58
338,Wajid,27,SO,1612258897,16,3.8093,43.2471,35.06,6.8
339,Hirado,20,JP,1612258898,56,33.3597,129.5531,5.0,9.26
340,Mackay,0,AU,1612258899,69,-21.15,149.2,27.0,3.09
341,Buraidah,40,SA,1612258900,38,26.326,43.975,23.0,6.17
342,Awjilah,65,LY,1612258904,35,29.1081,21.2869,19.31,2.75
343,Sheopur,0,IN,1612258906,13,25.6667,76.7,30.02,3.45
344,Ryōtsu-minato,75,JP,1612258907,75,38.0833,138.4333,1.0,9.26
345,Makaha,75,US,1612258912,100,21.4694,-158.2175,21.0,2.9
346,Mitsamiouli,81,KM,1612258913,67,-11.3847,43.2844,29.17,1.42
347,Nyaunglebin,10,MM,1612258914,14,17.95,96.7333,34.38,3.57
348,Arrondissement de Langres,90,FR,1612258915,93,47.8333,5.3333,10.0,7.72
349,Egvekinot,100,RU,1612258917,96,66.3167,-179.1667,-15.85,5.04
350,Deputatsky,100,RU,1612258918,88,69.3,139.9,-30.98,2.7
351,Altamira,80,BR,1612258919,97,-3.2033,-52.2064,22.04,0.65
352,Weihai,0,CN,1612258920,82,37.5017,122.1136,-0.55,9.36
353,Sayyan,0,YE,1612258921,20,15.1718,44.3244,20.46,2.8
354,Talara,87,PE,1612258922,77,-4.5772,-81.2719,23.05,5.46
355,Kosai,10,JP,1612258924,48,34.7105,137.5316,7.22,4.02
356,Dongkan,0,CN,1612258925,68,33.9997,119.8308,3.96,3.14
357,Qaqortoq,90,GL,1612258926,74,60.7167,-46.0333,-3.0,1.54
358,Horki,75,BY,1612258927,100,54.2861,30.9842,-10.0,2.0
359,Aitape,90,PG,1612258928,84,-3.1374,142.3475,26.55,3.96
360,Mogadishu,1,SO,1612258837,51,2.0371,45.3438,29.0,9.77
361,Dubbo,0,AU,1612258883,46,-32.25,148.6167,23.0,3.09
362,Aksarka,100,RU,1612258932,93,66.5606,67.7975,-17.93,4.59
363,Poronaysk,85,RU,1612258933,86,49.2167,143.1167,-25.26,2.64
364,Maceió,40,BR,1612258934,94,-9.6658,-35.7353,23.0,1.54
365,Haimen,0,CN,1612258936,64,23.1935,116.6142,20.0,6.0
366,Gračac,40,HR,1612258937,71,44.3006,15.8547,12.22,1.03
367,Caravelas,96,BR,1612258938,79,-17.7125,-39.2481,24.98,0.86
368,Dawson Creek,90,CA,1612258939,78,55.7666,-120.2362,-19.0,3.09
369,Serra Talhada,100,BR,1612258940,68,-7.9919,-38.2983,23.19,2.64
370,Tuy Hoa,100,VN,1612258903,84,13.0833,109.3,22.7,5.24
371,Porbandar,0,IN,1612258943,32,21.6422,69.6093,28.19,5.68
372,Penzance,20,GB,1612258944,100,50.1186,-5.5371,11.0,10.29
373,Durham,90,US,1612258945,69,36.0335,-78.8664,2.0,3.09
374,Sechura,94,PE,1612258946,76,-5.5569,-80.8222,22.62,4.18
375,Khorinsk,8,RU,1612258947,85,52.1657,109.7726,-27.25,1.83
376,Hambantota,40,LK,1612258948,66,6.1241,81.1185,32.0,6.69
377,Mandalgovi,24,MN,1612258960,82,45.7625,106.2708,-15.54,4.02
378,Lavras,100,BR,1612258961,92,-21.2453,-44.9997,19.52,1.33
379,Tuskegee,1,US,1612258962,74,32.424,-85.6916,0.56,4.12
380,Calatayud,0,ES,1612258963,55,41.3535,-1.6432,15.0,9.41
381,Luena,40,AO,1612258964,65,-11.7833,19.9167,27.0,1.25
382,Santa Marta,6,CO,1612258966,76,11.2408,-74.199,26.67,4.81
383,Kamensk-Ural'skiy,100,RU,1612258967,98,56.4185,61.9329,-3.38,6.45
384,Mishelevka,100,RU,1612258968,91,52.8575,103.1719,-20.95,0.69
385,Outjo,33,NA,1612258969,32,-20.1167,16.15,28.94,1.65
386,Sertânia,100,BR,1612258970,74,-8.0736,-37.2644,21.9,3.32
387,Ankpa,4,NG,1612258971,37,7.3706,7.6253,35.0,1.01
388,Khabarovsk,20,RU,1612258833,48,48.4808,135.0928,-27.0,11.0
389,Goma,51,CD,1612258974,56,-1.6792,29.2228,23.86,1.78
390,Sola,90,VU,1612258975,83,-13.8833,167.55,28.0,5.14
391,Puerto del Rosario,75,ES,1612258976,82,28.5004,-13.8627,18.0,4.12
392,Westport,100,US,1612258978,97,41.1415,-73.3579,1.67,1.79
393,Oranjestad,20,AW,1612258979,83,12.524,-70.027,25.0,5.66
394,Baoding,0,CN,1612258777,56,38.8511,115.4903,0.38,2.17
395,Valdivia,24,CL,1612258981,100,-39.8142,-73.2459,8.0,0.51
396,Kichmengskiy Gorodok,98,RU,1612258982,96,59.9816,45.7854,-5.43,4.09
397,Ondjiva,20,AO,1612258983,34,-17.0667,15.7333,27.0,3.09
398,Dzhebariki-Khaya,100,RU,1612258985,76,62.2167,135.8,-44.03,1.18
399,Sept-Îles,2,CA,1612258986,67,50.2001,-66.3821,-9.0,1.54
400,Abalak,94,RU,1612258987,97,58.1286,68.5944,-7.17,3.27
401,Sonoita,71,MX,1612258988,36,31.85,-112.8333,17.22,2.5
402,Kulachi,27,PK,1612258989,20,31.9286,70.4592,23.59,2.76
403,Belaya Gora,100,RU,1612258991,91,68.5333,146.4167,-23.3,3.28
404,Bijie,93,CN,1612258806,73,27.3125,105.2942,7.43,3.14
405,Sistranda,20,NO,1612258993,86,63.7256,8.834,-7.0,7.2
406,Juneau,75,US,1612258994,86,58.3019,-134.4197,-5.56,4.12
407,Linxia Chengguanzhen,59,CN,1612258995,62,35.6003,103.2064,1.69,0.57
408,Kruisfontein,76,ZA,1612258996,45,-34.0033,24.7314,27.78,1.79
409,Champerico,0,GT,1612259001,61,14.3,-91.9167,17.78,2.28
410,Revda,90,RU,1612259002,93,56.801,59.9303,-5.0,5.0
411,Tateyama,20,JP,1612259003,54,34.9833,139.8667,13.0,10.29
412,Najrān,0,SA,1612258962,31,17.4924,44.1277,23.0,4.12
413,Khani,0,GE,1612259005,22,41.9563,42.9566,20.0,2.06
414,Vryburg,100,ZA,1612259006,87,-26.9566,24.7284,16.08,7.53
415,Gouré,13,NE,1612259008,7,13.9835,10.2704,27.78,4.02
416,Dekar,87,BW,1612259009,67,-21.5333,21.9333,25.86,2.27
417,Naze,40,JP,1612258790,62,28.3667,129.4833,14.0,5.14
418,Yendi,0,GH,1612259011,12,9.4427,-0.0099,31.98,2.5
419,Boa Vista,90,BR,1612259013,69,2.8197,-60.6733,25.0,6.17
420,Bulgan,91,MN,1612259014,86,48.8125,103.5347,-16.72,1.36
421,Abay,0,KZ,1612259015,73,49.6311,72.8539,-9.0,4.0
422,Beringovskiy,100,RU,1612259016,98,63.05,179.3167,-5.91,6.09
423,Quatre Cocos,40,MU,1612259017,62,-20.2078,57.7625,31.0,8.23
424,Lebyazh'ye,100,RU,1612259018,96,55.2689,66.4947,-4.75,4.54
425,Oistins,40,BB,1612259020,61,13.0667,-59.5333,26.0,9.77
426,Camaçari,40,BR,1612259021,88,-12.6975,-38.3242,25.0,1.03
427,São Filipe,1,CV,1612259022,69,14.8961,-24.4956,23.51,3.24
428,Kotka,40,FI,1612259023,92,60.4664,26.9458,-7.22,1.54
429,Paamiut,0,GL,1612259024,87,61.994,-49.6678,-12.9,9.21
430,Ukiah,90,US,1612259026,87,39.1502,-123.2078,11.0,2.06
431,Palmeira,11,BR,1612259027,97,-25.4294,-50.0064,18.14,1.05
432,Okitipupa,91,NG,1612259028,56,6.5047,4.7839,32.55,1.39
433,Chipinge,98,ZW,1612259030,85,-20.1883,32.6236,23.17,3.26
434,Srednekolymsk,100,RU,1612259031,85,67.45,153.6833,-29.25,5.15
435,Road Town,32,VG,1612259032,84,18.4167,-64.6167,25.56,1.34
436,Merauke,100,ID,1612258937,84,-8.4667,140.3333,27.05,6.86
437,Dabakala,0,CI,1612259034,21,8.3667,-4.4333,32.33,0.64
438,Chokwé,100,MZ,1612259036,94,-24.5333,32.9833,21.9,6.41
439,Antofagasta,90,CL,1612259037,68,-23.65,-70.4,19.0,1.03
440,Malé,40,MV,1612258766,70,4.1748,73.5089,31.0,9.77
441,Vostok,100,RU,1612259040,87,46.4856,135.8833,-29.56,2.6
442,Bariloche,0,AR,1612259041,87,-41.1456,-71.3082,12.22,2.57
443,Tiksi,100,RU,1612259042,92,71.6872,128.8694,-19.73,8.37
444,Seoul,40,KR,1612258924,50,37.5683,126.9778,-3.0,3.09
445,Kongolo,96,CD,1612259045,72,-5.3833,27.0,26.38,1.93
446,Ciudad Bolivar,69,VE,1612259046,84,8.1222,-63.5497,22.41,4.01
447,Shostka,79,UA,1612259047,94,51.863,33.4698,-5.78,4.33
448,Paraíba do Sul,100,BR,1612259048,91,-22.1619,-43.2928,20.0,1.66
449,Kiryat Gat,0,IL,1612259049,37,31.61,34.7642,24.44,2.68
450,Noumea,90,NC,1612258951,94,-22.2763,166.4572,25.56,7.2
451,San Vicente,55,AR,1612259051,100,-26.6167,-54.1333,19.71,0.75
452,Kudahuvadhoo,100,MV,1612259053,75,2.6708,72.8944,27.9,5.59
453,Bagar,0,IN,1612259054,14,28.1874,75.5005,28.09,3.85
454,Khovd,27,MN,1612259055,73,48.0056,91.6419,-9.16,1.2
455,Sfântu Gheorghe,24,RO,1612259056,93,45.8667,25.7833,6.11,0.52
456,Tromsø,0,NO,1612259057,86,69.6496,18.957,-6.11,1.97
457,Gīdolē,77,ET,1612259058,18,5.65,37.3667,26.59,1.03
458,Port Macquarie,32,AU,1612259060,79,-31.4333,152.9167,21.67,0.45
459,Nguruka,74,TZ,1612259061,64,-5.1092,31.0419,26.39,2.68
460,Cockburn Town,5,TC,1612259062,75,21.4612,-71.1419,25.57,6.35
461,Mpika,100,ZM,1612259063,82,-11.8343,31.4529,21.71,3.14
462,Tiznit Province,100,MA,1612259064,28,29.5833,-9.5,22.32,1.43
463,Anloga,75,GH,1612259066,79,5.7947,0.8973,30.0,2.57
464,Aguçadoura,90,PT,1612259067,100,41.4318,-8.7804,13.0,8.75
465,Moose Factory,90,CA,1612259068,84,51.2585,-80.6094,-21.0,1.54
466,Goribidnūr,0,IN,1612259069,29,13.6111,77.5167,27.0,4.12
467,Shāhābād,0,IN,1612259070,27,27.65,79.95,24.81,2.96
468,Poum,100,NC,1612259071,86,-20.2333,164.0167,24.47,17.68
469,Río Gallegos,0,AR,1612259073,62,-51.6226,-69.2181,12.0,3.09
470,Moerai,71,PF,1612259074,65,-22.4333,-151.3333,27.03,2.69
471,Ürümqi,100,CN,1612259076,68,43.801,87.6005,-6.0,1.0
472,Mayo,90,US,1612259077,93,38.8876,-76.5119,0.56,5.14
473,Sarankhola,0,BD,1612259078,19,22.3082,89.7897,27.12,3.52
474,Dicabisagan,80,PH,1612259079,81,17.0818,122.4157,22.97,3.89
475,Oga,40,IT,1612259080,100,46.4631,10.347,8.89,0.51
476,Shwebo,0,MM,1612259081,20,22.5667,95.7,29.04,1.16
477,Tonantins,100,BR,1612259083,98,-2.8731,-67.8022,22.76,0.16
478,San Cristobal,99,VE,1612259084,83,7.7669,-72.225,17.49,1.65
479,Buchanan,75,LR,1612259085,94,5.8808,-10.0467,26.0,1.54
480,Santa Barbara,1,US,1612259086,93,34.7333,-120.0343,8.33,1.23
481,Pringsewu,91,ID,1612259087,87,-5.3582,104.9744,26.34,0.37
482,Yangi Marg`ilon,99,UZ,1612259088,43,40.4272,71.7189,12.0,2.06
483,Omboué,69,GA,1612259089,75,-1.5746,9.2618,28.64,4.56
484,Nishihara,40,JP,1612259101,68,26.1842,127.7558,19.0,10.29
485,Namuac,76,PH,1612259102,83,18.6109,121.1657,23.05,6.73
486,Haines Junction,100,CA,1612259103,59,60.7522,-137.5108,-23.0,3.09
487,Sumenep,98,ID,1612259104,79,-7.0167,113.8667,27.79,7.19
488,Bosaso,0,SO,1612259106,65,11.2842,49.1816,26.0,6.69
489,College,1,US,1612259107,69,64.8569,-147.8028,-28.0,2.57
490,Prado,73,BR,1612259108,83,-17.3411,-39.2208,24.39,1.17
491,Butte,90,US,1612259109,94,39.6499,-121.5677,12.22,6.17
492,Zhicheng,37,CN,1612259110,68,30.2956,111.5047,11.11,0.89
493,Vestmanna,20,FO,1612259111,69,62.1564,-7.1664,-2.0,3.09
494,Souillac,40,MU,1612259113,62,-20.5167,57.5167,31.0,8.23
495,Kautokeino,32,NO,1612259114,93,69.0125,23.0412,-13.54,1.86
496,Yerbogachën,11,RU,1612259115,81,61.2767,108.0108,-36.53,2.07
497,Ushumun,98,RU,1612259117,83,52.7833,126.5333,-28.73,4.39
498,Lesnoy,100,RU,1612259118,98,57.6198,63.0784,-5.57,3.19
499,Lyuban',100,BY,1612259119,93,52.7985,28.0048,-6.13,4.1
500,Ulaangom,87,MN,1612259120,89,49.9811,92.0667,-22.6,0.45
501,Leh,48,IN,1612259045,70,34.1667,77.5833,-8.26,0.47
502,Sørland,40,NO,1612259122,93,67.667,12.6934,-4.0,2.57
503,Gonaïves,54,HT,1612259124,79,19.45,-72.6833,22.06,1.07
504,Gold Coast,94,AU,1612259125,94,-28.0,153.4333,22.78,2.57
505,Ranong,75,TH,1612259126,62,9.9658,98.6348,32.0,2.57
506,Zhuhai,0,CN,1612259127,78,22.2769,113.5678,28.89,2.06
507,Sukhumi,65,GE,1612259128,38,43.0033,41.0153,16.41,0.86
508,Sakaiminato,75,JP,1612259130,52,35.55,133.2333,5.0,8.75
509,Mount Isa,90,AU,1612259131,48,-20.7333,139.5,31.0,6.69
510,Laguna,90,US,1612259132,94,38.421,-121.4238,12.22,2.47
511,Perelyub,100,RU,1612259133,98,51.8667,50.3667,1.67,7.78
512,Lorengau,77,PG,1612259134,79,-2.0226,147.2712,28.12,6.57
513,Gacko,20,BA,1612259136,93,43.1672,18.5353,8.0,1.03
514,Hobyo,81,SO,1612259137,55,5.3505,48.5268,27.08,10.46
515,Porto Nacional,0,BR,1612259138,100,-10.7081,-48.4172,22.0,1.54
516,Guarapari,20,BR,1612259139,94,-20.6667,-40.4975,23.33,1.03
517,Saint-Pierre,90,RE,1612259140,66,-21.3393,55.4781,31.0,2.06
518,Phang Nga,20,TH,1612259141,66,8.4509,98.5298,33.0,3.6
519,Eureka,99,US,1612259143,96,40.8021,-124.1637,8.89,4.74
520,Puerto Baquerizo Moreno,19,EC,1612259144,86,-0.9,-89.6,24.96,5.73
521,Walvis Bay,11,NA,1612259145,64,-22.9575,14.5053,22.0,2.06
522,Alofi,100,NU,1612259146,94,-19.0595,-169.9187,25.0,2.57
523,Luwuk,88,ID,1612259147,73,-0.9516,122.7875,27.75,1.94
524,Linguère,0,SN,1612259148,17,15.3953,-15.1193,21.0,3.09
525,Saint-Joseph,90,RE,1612259154,66,-21.3667,55.6167,31.0,2.06
526,Sirūr,0,IN,1612259155,14,18.8333,74.3833,29.87,3.45
527,Liwale,61,TZ,1612259156,59,-9.7667,37.9333,30.39,1.33
528,Houma,1,US,1612259157,81,29.5958,-90.7195,3.0,2.06
529,Osoyoos,97,CA,1612259158,87,49.0331,-119.4524,6.0,4.63
530,Sławno,96,PL,1612259160,97,54.3628,16.6789,-1.13,4.23
531,Lālganj,0,IN,1612259056,45,25.8667,85.1833,20.0,3.09
532,Hokitika,0,NZ,1612259162,88,-42.7167,170.9667,14.83,3.0
533,Abashiri,40,JP,1612259135,86,44.0213,144.2697,-8.33,1.03
534,Zholymbet,100,KZ,1612259164,96,51.7433,71.7122,-7.59,4.44
535,Zhigansk,57,RU,1612259166,79,66.7697,123.3711,-41.92,1.7
536,Les Cayes,14,HT,1612259167,84,18.2,-73.75,23.05,1.04
537,Ventspils,0,LV,1612259168,86,57.3894,21.5606,-4.0,3.6
538,Wilmington,90,US,1612259169,81,34.2257,-77.9447,4.0,3.09
539,Buin,90,CL,1612259170,100,-33.7333,-70.75,15.0,2.57
540,San Isidro,0,PE,1612259171,83,-12.1167,-77.05,20.0,2.06
541,San Policarpo,98,PH,1612259173,83,12.1791,125.5072,26.55,5.9
542,Saint Lawrence,40,MT,1612259174,82,36.0553,14.204,16.0,8.23
543,Whitehorse,90,CA,1612259175,77,60.7161,-135.0538,-23.0,4.63
544,Bakchar,100,RU,1612259176,95,57.0186,82.0711,-11.61,3.15
545,Gurlan,0,UZ,1612259177,53,41.8447,60.3919,11.0,2.06
546,Ahipara,68,NZ,1612259178,81,-35.1667,173.1667,18.02,1.48
547,Pangai,100,TO,1612259180,83,-19.8,-174.35,27.3,11.53
548,Dafeng,70,CN,1612259181,43,23.4517,108.5881,25.82,2.07
549,Okhotsk,100,RU,1612259182,88,59.3833,143.3,-27.51,5.79
550,Nizhniy Tsasuchey,0,RU,1612259183,82,50.5167,115.1333,-26.16,2.92
551,Taltal,76,CL,1612259184,79,-25.4,-70.4833,16.84,1.2
552,Lethem,84,GY,1612259186,76,3.3803,-59.7968,23.2,4.48
553,Bereda,97,ES,1612259187,98,43.2686,-7.5406,12.78,7.6
554,Nikkō,5,JP,1612259188,51,36.75,139.6167,3.33,4.02
555,Bria,5,CF,1612259189,13,6.5423,21.9863,39.15,1.9
556,Kuril'sk,88,RU,1612259190,89,45.2333,147.8833,-8.05,12.05
557,Ayan,100,RU,1612259192,70,56.45,138.1667,-33.24,6.05
558,Bexhill,40,AU,1612259193,83,-28.7667,153.35,22.0,3.6
559,Balakhninskiy,100,RU,1612259194,81,58.0106,114.2769,-31.34,0.84
560,Oranjemund,0,NA,1612259195,56,-28.55,16.4333,22.54,4.56
561,Kapoeta,87,SS,1612259196,16,4.7717,33.5903,36.59,9.13
562,Pont-Sainte-Maxence,75,FR,1612259198,94,49.3017,2.6047,12.0,5.14
563,Chicama,95,PE,1612259199,76,-7.8447,-79.1469,20.83,2.41
564,Narrabri,75,AU,1612259200,61,-30.3167,149.7833,25.0,2.66
565,Tūkrah,15,LY,1612259201,49,32.5341,20.5791,17.86,4.74
566,Baharly,0,TM,1612259202,40,38.4362,57.4316,14.65,6.21
567,Punta de Piedra,100,VE,1612259203,72,7.6176,-71.4916,22.34,0.96
568,Negombo,40,LK,1612259072,55,7.2083,79.8358,32.0,4.12
569,Rhodes,40,GR,1612259206,77,36.4408,28.2225,18.33,4.12
570,Inhambane,75,MZ,1612259189,74,-23.865,35.3833,30.0,2.06
571,Kirakira,100,SB,1612259208,86,-10.4544,161.9205,26.22,5.84
572,Burgos,75,ES,1612259209,93,42.3394,-3.7079,9.0,7.72
573,Puro,97,PH,1612259210,81,12.4841,123.3827,26.31,6.4
574,Warmbad,0,NA,1612259211,15,-28.45,18.7333,32.96,3.33
575,Ternate,100,ID,1612259213,79,0.8,127.4,27.47,4.84
576,Ladário,0,BR,1612259214,75,-19.0047,-57.6017,23.88,0.56
577,Kungurtug,12,RU,1612259215,87,50.5994,97.5228,-17.26,0.26
578,Tolmachëvo,0,RU,1612259216,62,54.9824,82.7363,-11.0,3.0
579,Bilma,0,NE,1612259217,15,18.6853,12.9164,25.08,4.67
580,Bhowali,0,IN,1612259218,31,29.3833,79.5167,15.42,2.99
581,Brae,20,GB,1612259220,80,60.3964,-1.353,1.0,5.14
582,Markova,90,UA,1612259221,93,48.6758,24.4138,-2.0,4.0
583,Rypefjord,90,NO,1612259222,93,70.6333,23.6667,-4.0,7.2
584,Altamont,90,US,1612259223,81,42.2068,-121.7372,4.0,4.63
585,Antalaha,97,MG,1612259224,65,-14.9003,50.2788,30.83,6.45
586,Darhan,18,MN,1612259225,86,49.4867,105.9228,-22.25,0.87
587,Nelson Bay,90,AU,1612259227,68,-32.7167,152.15,21.0,5.66
588,Shingū,0,JP,1612259228,43,33.7333,135.9833,9.0,7.2
589,Mīnāb,0,IR,1612259229,53,27.1467,57.0801,25.0,5.14
590,Santa Isabel Rio Negro,100,BR,1612259230,98,-0.4139,-65.0192,22.21,0.31
591,Rocha,0,UY,1612259231,90,-34.4833,-54.3333,20.17,1.48
592,Warrnambool,65,AU,1612258997,79,-38.3833,142.4833,15.0,5.3
593,Linjiang,100,CN,1612259234,85,41.8069,126.9078,-17.14,2.05
594,Tautira,0,PF,1612259235,78,-17.7333,-149.15,26.0,3.09
595,Sobolevo,95,RU,1612259236,97,54.4299,31.8996,-7.51,2.81
596,Seda,100,LV,1612259237,88,57.65,25.75,-4.44,1.79
597,Pasir Gudang,75,MY,1612259241,65,1.4584,103.8805,30.0,6.69
598,Honiara,100,SB,1612259097,87,-9.4333,159.95,25.85,4.31
599,Amrāvati,0,IN,1612259244,12,20.9333,77.75,31.08,1.45
600,Ilesha,94,NG,1612259245,60,7.1371,5.2583,28.91,1.3
601,Santa Vitória do Palmar,1,BR,1612259246,92,-33.5189,-53.3681,20.85,2.48
602,Mehamn,75,NO,1612259247,69,71.0357,27.8492,-2.0,3.6
603,Marrakesh,35,MA,1612259248,48,31.6315,-8.0083,18.0,0.51
604,Sambava,100,MG,1612259190,64,-14.2667,50.1667,30.48,7.04
605,Bodden Town,24,KY,1612259251,64,19.2833,-81.25,23.89,7.15
606,Goya,53,AR,1612259252,82,-29.14,-59.2626,20.22,3.32
607,Verkhniy Mamon,100,RU,1612259253,98,50.1635,40.3832,3.3,1.66
608,Uren',77,RU,1612259254,97,57.4552,45.7852,-7.36,2.38
609,Izumo,40,JP,1612259056,56,35.3667,132.7667,4.0,6.69
610,Bubaque,28,GW,1612259257,63,11.2833,-15.8333,25.74,2.03
611,Cassilândia,100,BR,1612259258,88,-19.1133,-51.7342,22.09,1.38
612,Monrovia,75,LR,1612259138,94,6.3005,-10.7969,26.0,1.54
613,Nerchinskiy Zavod,2,RU,1612259260,82,51.3088,119.61,-33.95,1.6
614,Iquique,0,CL,1612259261,64,-20.2208,-70.1431,21.0,2.57
615,Dingli,40,MT,1612259262,82,35.8614,14.3822,16.0,8.23
616,Lufilufi,75,WS,1612259264,89,-13.8745,-171.5986,28.0,6.69
617,Manggar,100,ID,1612259265,74,-2.8833,108.2667,28.27,5.7
618,Luanda,75,AO,1612259244,58,-8.8368,13.2343,31.0,2.57
619,Ugoofaaru,19,MV,1612259101,70,5.6667,73.0,28.07,9.62
620,Carutapera,43,BR,1612259268,89,-1.195,-46.02,25.34,2.64
621,Marion,20,US,1612259269,86,39.7684,-86.1555,-3.89,4.63
622,Chase,100,CA,1612259270,100,50.8165,-119.6857,2.0,0.51
623,Acapulco de Juárez,0,MX,1612259232,76,16.8634,-99.8901,23.5,0.96
624,Comarapa,100,BO,1612259273,100,-17.9,-64.4833,14.83,0.98
625,Aranos,3,NA,1612259274,22,-24.1333,19.1167,30.8,6.05
626,Ibrā’,0,OM,1612259275,14,22.6906,58.5334,29.48,4.52
627,Alamosa,20,US,1612259276,86,37.4695,-105.87,-9.0,1.54
628,Guadalupe y Calvo,60,MX,1612259277,58,26.1,-106.9667,7.43,2.21
629,Malanje,62,AO,1612259279,73,-9.5402,16.341,24.18,2.3
630,Mersing,97,MY,1612259280,74,2.4312,103.8405,29.0,6.17
631,Tomohon,40,ID,1612259281,89,1.3346,124.8392,26.0,1.54
632,Hay River,100,CA,1612259282,77,60.8156,-115.7999,-23.0,4.63
633,La Tuque,95,CA,1612259283,92,47.4334,-72.7824,-18.0,1.54
634,Našice,90,HR,1612259285,100,45.4886,18.0878,0.0,1.54
635,Victor Harbor,0,AU,1612259286,71,-35.5667,138.6167,17.22,0.89
636,Mahibadhoo,70,MV,1612259287,78,3.7833,72.9667,27.97,8.04
637,North Bend,90,US,1612259288,100,43.4065,-124.2243,8.33,3.09
638,Marabu,40,MY,1612259269,79,4.4148,114.0089,29.0,6.17
639,Back Mountain,100,US,1612259290,87,41.3359,-75.9963,-2.22,1.34
640,Mocuba,1,MZ,1612259292,56,-16.8392,36.9856,33.63,1.56
641,Taywarah,0,AF,1612259293,65,33.35,64.4167,2.5,2.47
642,Flinders,29,AU,1612259295,77,-34.5833,150.8552,19.44,0.89
643,Pangnirtung,13,CA,1612259306,76,66.1451,-65.7125,-33.87,1.22
644,Matadi,92,CD,1612259307,71,-5.8167,13.45,29.27,2.05
645,Lodja,82,CD,1612259308,56,-3.4833,23.4333,27.91,1.73
646,Birnin Kebbi,0,NG,1612259177,12,12.4539,4.1975,30.43,5.7
647,Zuwārah,2,LY,1612259310,62,32.9312,12.082,16.55,6.64
648,Sawtell,90,AU,1612259312,73,-30.3833,153.1,23.33,7.72
649,Hanyang,98,CN,1612259313,65,32.1371,105.5126,7.78,1.34
650,Henties Bay,22,NA,1612259314,76,-22.116,14.2845,19.89,3.6
651,Coahuayana Viejo,0,MX,1612259315,77,18.7333,-103.6833,21.26,1.75
652,Maxixe,75,MZ,1612259316,74,-23.8597,35.3472,30.0,2.06
653,Leshukonskoye,99,RU,1612259317,95,64.8989,45.7622,-11.56,3.53
654,Bilibino,20,RU,1612259319,83,68.0546,166.4372,-19.78,2.88
655,Røros,75,NO,1612259320,70,62.5747,11.3842,-26.0,0.51
656,Edmond,99,US,1612259321,63,35.6528,-97.4781,6.11,0.45
657,Destin,1,US,1612259322,60,30.3935,-86.4958,4.0,5.14
658,Eyrarbakki,0,IS,1612259323,47,63.863,-21.1481,1.0,7.72
659,Ardeşen,0,TR,1612259324,23,41.1911,40.9875,21.0,6.17
660,Sretensk,7,RU,1612259326,81,52.2453,117.7093,-32.89,0.9
661,Ndjolé,100,GA,1612259327,67,-0.1783,10.7649,29.69,1.49
662,Puerto Suárez,1,BO,1612259328,75,-18.95,-57.8,24.03,0.83
663,Kalemie,82,CD,1612259117,69,-5.9475,29.1947,25.99,3.2
664,Olinda,75,BR,1612259330,69,-8.0089,-34.8553,26.0,3.6
665,Manta,68,EC,1612259331,83,-0.95,-80.7333,24.09,2.07
666,Xichang,6,CN,1612259333,39,27.8964,102.2634,15.37,2.45
667,Thinadhoo,71,MV,1612259323,63,0.5333,72.9333,28.76,1.37
668,Goundam,96,ML,1612259335,14,16.4145,-3.6708,26.34,6.23
669,Patti,0,IN,1612259298,49,31.2808,74.8572,22.0,3.09
670,Mountain Home,40,US,1612259337,60,43.133,-115.6912,3.0,7.2
671,Los Llanos de Aridane,75,ES,1612259338,82,28.6585,-17.9182,18.0,3.6
672,La Rioja,20,ES,1612259340,63,42.25,-2.5,15.0,3.09
673,Lahad Datu,98,MY,1612259323,89,5.0268,118.327,25.43,3.11
